[
  {"id":1,"name":"图书馆","lng":113.542,"lat":34.823,"category":"study","value":80},
  {"id":2,"name":"体育馆","lng":113.544,"lat":34.821,"category":"sports","value":60},
  {"id":3,"name":"学生食堂","lng":113.548,"lat":34.825,"category":"food","value":90},
  {"id":4,"name":"教学楼A","lng":113.550,"lat":34.820,"category":"teaching","value":75},
  {"id":5,"name":"教学楼B","lng":113.553,"lat":34.822,"category":"teaching","value":70},
  {"id":6,"name":"行政楼","lng":113.546,"lat":34.819,"category":"admin","value":65},
  {"id":7,"name":"学生公寓1号楼","lng":113.541,"lat":34.818,"category":"dorm","value":85},
  {"id":8,"name":"学生公寓2号楼","lng":113.540,"lat":34.817,"category":"dorm","value":82},
  {"id":9,"name":"操场","lng":113.547,"lat":34.826,"category":"sports","value":55},
  {"id":10,"name":"篮球场","lng":113.549,"lat":34.827,"category":"sports","value":58},
  {"id":11,"name":"校医院","lng":113.545,"lat":34.824,"category":"service","value":77},
  {"id":12,"name":"快递中心","lng":113.543,"lat":34.828,"category":"service","value":68},
  {"id":13,"name":"超市","lng":113.551,"lat":34.829,"category":"service","value":73},
  {"id":14,"name":"咖啡厅","lng":113.552,"lat":34.830,"category":"food","value":88},
  {"id":15,"name":"小吃街","lng":113.554,"lat":34.831,"category":"food","value":92},
  {"id":16,"name":"创新实验室","lng":113.555,"lat":34.819,"category":"lab","value":79},
  {"id":17,"name":"信息中心","lng":113.556,"lat":34.818,"category":"admin","value":67},
  {"id":18,"name":"艺术楼","lng":113.557,"lat":34.832,"category":"teaching","value":74},
  {"id":19,"name":"音乐厅","lng":113.558,"lat":34.833,"category":"teaching","value":76},
  {"id":20,"name":"校史馆","lng":113.559,"lat":34.834,"category":"study","value":81},
  {"id":21,"name":"游泳馆","lng":113.560,"lat":34.835,"category":"sports","value":63},
  {"id":22,"name":"乒乓球馆","lng":113.561,"lat":34.836,"category":"sports","value":62},
  {"id":23,"name":"教师公寓","lng":113.562,"lat":34.837,"category":"dorm","value":80},
  {"id":24,"name":"研究生公寓","lng":113.563,"lat":34.838,"category":"dorm","value":83},
  {"id":25,"name":"校门","lng":113.564,"lat":34.839,"category":"service","value":78},
  {"id":26,"name":"停车场","lng":113.565,"lat":34.840,"category":"service","value":66},
  {"id":27,"name":"快餐店","lng":113.566,"lat":34.841,"category":"food","value":87},
  {"id":28,"name":"奶茶店","lng":113.567,"lat":34.842,"category":"food","value":89},
  {"id":29,"name":"自习室","lng":113.568,"lat":34.843,"category":"study","value":84},
  {"id":30,"name":"报告厅","lng":113.569,"lat":34.844,"category":"teaching","value":72},
  {"id":31,"name":"学生活动中心","lng":113.570,"lat":34.845,"category":"service","value":71},
  {"id":32,"name":"体育器材室","lng":113.571,"lat":34.846,"category":"sports","value":61},
  {"id":33,"name":"教师餐厅","lng":113.572,"lat":34.847,"category":"food","value":86},
  {"id":34,"name":"学术交流中心","lng":113.573,"lat":34.848,"category":"lab","value":78},
  {"id":35,"name":"心理咨询室","lng":113.574,"lat":34.849,"category":"service","value":69}
]
